timestamp,sequence_id,base_x,base_y,base_z,roll,pitch,yaw,vx,vy,vz,wx,wy,wz,LF_contact,LH_contact,RF_contact,RH_contact,LF_Fz,LH_Fz,RF_Fz,RH_Fz,sum_Fz,q_0,q_1,q_2,q_3,q_4,q_5,q_6,q_7,q_8,q_9,q_10,q_11,qd_0,qd_1,qd_2,qd_3,qd_4,qd_5,qd_6,qd_7,qd_8,qd_9,qd_10,qd_11,qdd_0,qdd_1,qdd_2,qdd_3,qdd_4,qdd_5,qdd_6,qdd_7,qdd_8,qdd_9,qdd_10,qdd_11
1727776115.511429,161612,212.54526181211705,12.735329283184253,10.583691188782703,-0.02140430777233103,-0.24853358082622534,1.9660362548430015,0.5391362937436919,0.06760209475375148,0.09382352731158489,0.1177992666058691,-0.00834870736552168,-0.026321881024746936,1,1,1,1,124.52224816213172,371.69439927960497,170.74564873900061,209.00686744685822,875.9691636275954,-0.1774624139070511,0.5295829176902771,-1.4395211935043335,0.40226250886917114,1.2276160717010498,-1.8446838855743408,-0.3094566762447357,-0.05249090492725372,0.5487576723098755,0.4791772663593292,-0.8961084485054016,1.339213252067566,0.3710898513963065,0.18568814966933989,1.0331221789137972,-0.319105504517313,1.3527325688395189,0.0469788544670001,-0.15241936708796,2.0730687746999497,-2.129882789182937,-0.7376565067734384,2.521122791499434,-2.4557969812774174,-46.30997877255462,30.093973850831166,-68.18201373950386,-7.153470931374983,-1.5084210327445784,-1.294228778644876,1.4846394369738478,13.16334320641468,-20.691961123692003,74.90403899216444,25.603660547426003,334.8829623081173
1727776115.5137296,161613,212.54438749955884,12.736532059092639,10.584266224135105,-0.02104452481960221,-0.24854926404101668,1.9660402448809902,0.5428983211106513,0.061988972539866696,0.10886038263230897,0.12782032977374053,-0.011831666775497395,-0.05641428477662428,1,1,1,1,124.47986940646102,371.67633849729435,170.76045622948243,209.00690211075843,875.9235662439963,-0.17585651576519012,0.529822587966919,-1.436501145362854,0.4025980532169342,1.2319543361663818,-1.8454508781433105,-0.30972030758857727,-0.047505468130111694,0.5425019264221191,0.4782664477825165,-0.88726407289505,1.3353303670883179,0.5061145904097106,0.12945922751665367,1.0898010712609767,-0.09512471028486212,1.4605478492522321,-0.12113672011329076,-0.12480045995323719,1.9271430598769572,-2.2053548436839927,-0.5832040159302847,2.922602714786313,-2.1809076240883103,-23.101312841874545,19.653218043691968,-29.17216005428437,22.32407513668932,0.48009109569908104,-9.461980190668914,0.8462910088269737,6.199970444704261,-19.959389423677365,-293.8291111809733,49.093818344269714,-76.38505909334833
1727776115.5162764,161614,212.54438749955884,12.736532059092639,10.584266224135105,-0.02104452481960221,-0.24854926404101668,1.9660402448809902,0.5428983211106513,0.061988972539866696,0.10886038263230897,0.12782032977374053,-0.011831666775497395,-0.05641428477662428,1,1,1,1,98.37045492187808,378.90335164629107,143.3729876352693,284.2284974701403,904.8752916735789,-0.17420269548892975,0.5331541895866394,-1.435015082359314,0.4043237864971161,1.2394086122512817,-1.84624183177948,-0.31084683537483215,-0.03604855015873909,0.5293192863464355,0.47100400924682617,-0.8633435964584351,1.313447117805481,0.29609983737493395,0.613712956351637,0.4175178622007428,0.15847410959933636,1.4178067103385232,-0.10199081603125017,-0.17256149107417737,2.1629650422970923,-2.444650453692945,-1.0752907714826527,4.170417589058152,-3.192116547894122,-33.39334601583492,48.05384967753602,-94.09091089737264,13.720357196842421,0.1565647978676961,0.17042544030404128,-1.8729456011649728,11.861034263864449,-25.497742369815807,-68.55017552018302,103.18338387837967,86.0403879749503
1727776115.5189247,161615,212.54301422342525,12.738610636085964,10.585369047069056,-0.020329958722205922,-0.24861398665913195,1.9658466872798355,0.5542883968543431,0.05755781021483794,0.13495332092904747,0.03695766655241067,-0.012581233393098412,-0.04817531948688335,1,1,1,1,108.03509478991906,347.0732560190117,112.43911572157779,127.12427193451765,694.6717384650262,-0.17317205667495728,0.5357428193092346,-1.4348233938217163,0.40408411622047424,1.2427880764007568,-1.8457144498825073,-0.31067904829978943,-0.030919300392270088,0.5231114029884338,0.4719148278236389,-0.854163646697998,1.3089889287948608,0.3631715743957148,0.8355598844382836,0.2773336896613657,0.03976001615512296,1.3135222821885506,0.05771977221448017,-0.05477614697210196,2.1432364115208125,-2.5115989279671473,-0.3638626896657256,3.9909849800851913,-2.5486173997514667,4.74038612713442,47.942840601186035,-61.88843571248634,5.294904602462703,-2.7106742807712325,8.444957319887349,6.156133747897122,10.52033984894236,-25.78254347994997,83.80666267591077,76.78112654119379,129.5317793151509
1727776115.5214472,161616,212.54215494792905,12.739785856103927,10.586036541090547,-0.020166815732350053,-0.2486425940488202,1.9658115219630174,0.5525753975888577,0.04019677495506267,0.12319309485539226,-0.06952643674506646,0.08145418395528331,-0.08696268333582857,1,1,1,1,109.25899359264233,339.1723398527852,100.95774557999505,130.69156157747813,680.0806406029008,-0.17238110303878784,0.5395058393478394,-1.4351348876953125,0.4045634865760803,1.245832085609436,-1.8451871871948242,-0.3106550872325897,-0.024807346984744072,0.5151299238204956,0.4737124443054199,-0.8427546620368958,1.3040754795074463,0.3383106993037161,1.119779809598808,0.036272466267528586,0.11806019481013919,1.2920361648299004,0.13820346728457666,-0.023799478481331418,2.17904667369759,-2.7034513884207745,0.11411371464739961,4.084898559607691,-2.3743591796184753,-2.859667557695833,51.34651067659278,-86.84147109190388,13.31777592328674,-3.1964963826228665,8.942786816145825,4.764401315422264,10.003421879254635,-33.55236549505243,34.56216587295769,64.79929208923167,85.79351294189996
1727776115.5241044,161617,212.5413579365008,12.740941050979513,10.58665193921596,-0.020252389737546134,-0.24843360890377483,1.9656739981192692,0.5571770894850633,0.043541553131976767,0.1355943472861754,0.00035237624095497966,0.07236089039769192,-0.10001897053945573,1,1,1,1,121.45256030794197,325.35671952208077,98.28716199003449,148.2411707788254,693.3376125988825,-0.1720695048570633,0.544395387172699,-1.4377235174179077,0.4050668179988861,1.2492356300354004,-1.8441804647445679,-0.31135016679763794,-0.01756887510418892,0.5065732002258301,0.47217848896980286,-0.8283496499061584,1.2926664352416992,0.21691913964124,1.4596575212103051,-0.4721017622316546,0.14158114617274575,1.2453136666655502,0.252436187782,-0.14000656882299323,2.401949262195587,-2.9006504110788445,-0.253859414358052,4.678850328038722,-3.325732466368496,-15.531085695725826,58.02869077828804,-102.87154475896237,11.947765697401168,-4.148086983317838,12.126272325263109,-3.2030012201644125,16.65070791276713,-41.00997288502387,-31.663670824728076,82.82068374132405,-44.21792299086295
1727776115.5261881,161618,212.54053899963924,12.742099542043453,10.587308728268702,-0.020149000069045332,-0.24824725314018645,1.9655062248589024,0.5623323531130302,0.04181106205498873,0.1485244795534365,0.0012386653341124937,0.053904294137894146,-0.11257424923508443,1,1,1,1,141.17948047360906,295.5586360349938,101.2051802808158,85.81969033625391,623.7629871256725,-0.17226125299930573,0.5490932464599609,-1.4393773078918457,0.4044196605682373,1.251800298690796,-1.8431499004364014,-0.3118534982204437,-0.010977550409734249,0.4989512264728546,0.4706205129623413,-0.8156703114509583,1.2790523767471313,0.06145343251660879,1.6961970590966484,-0.5790606199720689,-0.05785709145818738,1.1614030200659289,0.30559711090821207,-0.1723275490171707,2.5601218561864454,-3.0228511555937843,-0.3830749002171253,4.948725485527428,-4.113344715317209,-25.570878099671564,60.039368879182376,-76.9463107057026,-2.812319882465587,-6.766445181746454,11.730150548931414,-3.1948565411816503,22.272073187979995,-43.047936669182725,-8.890810433782965,86.42263681253155,-79.85338965475776
1727776115.528856,161619,212.53977441916425,12.743160953764145,10.587935225787264,-0.020042990208195607,-0.2481191479731446,1.9653360125516695,0.5630420050521764,0.03179004330197879,0.14775579757933702,-0.06620683861818093,0.07618531412485727,-0.13909159718273767,1,1,1,1,147.4673750866816,251.198833285992,102.49174094276168,28.135931136998135,529.2938804524334,-0.1726447492837906,0.5550134181976318,-1.4418221712112427,0.404443621635437,1.2550599575042725,-1.8427903652191162,-0.3122609853744507,-0.0036432044580578804,0.49077799916267395,0.4713395833969116,-0.8019124269485474,1.2687219381332397,-0.04414970353960326,1.9182216033832462,-0.7365721341565854,-0.01653176544181617,1.1675598157425149,0.20721040695622037,-0.16053992781810003,2.578081415629613,-2.9499271470446895,-0.03689872316202293,4.922821982868663,-4.182115390988271,-26.58365376114667,60.19793135995682,-57.817148436051994,5.616869992450868,-6.494139623446943,1.8261797600538816,-1.8888914113498767,21.741854326543976,-31.05175630106057,29.65966873605435,60.142906190778035,-63.55218488344049
1727776115.5313473,161620,212.5389858068264,12.744353402942087,10.588632452096071,-0.02008881627146784,-0.24792213642118144,1.9650553665851906,0.5628825189174538,0.03086885474231364,0.1474094226192448,-0.07065574675896442,0.08771036446612503,-0.15117996150644936,1,1,1,1,161.27369603576943,144.59195614392013,93.20942803126641,43.34521915007804,442.42029936103404,-0.17302824556827545,0.5601906180381775,-1.4440271854400635,0.4050188660621643,1.257864236831665,-1.8425266742706299,-0.3128122389316559,0.001725728390738368,0.4845222234725952,0.4712916314601898,-0.7896645665168762,1.2574807405471802,-0.09684698696478937,2.0235301834199224,-0.8127015733279699,0.09841831858696339,1.1642505717719824,0.1664195258759117,-0.19370265000906753,2.4123837270835997,-2.785032401567335,-0.04525417782119987,5.024250070880985,-4.438383260045271,-23.345326042017494,57.369999427969944,-45.02825792944347,11.147413618166816,-6.036959819119111,0.4261278287154553,-2.7044348938113405,15.017282026616838,-16.524408563334557,4.807820162254371,41.43298406624988,-59.24543794765231
1727776115.5339386,161621,212.53820956385505,12.745525553965019,10.58930615066442,-0.02013718506381981,-0.24769960333347069,1.964752015976751,0.5626971282171174,0.0376098923655118,0.15025961243272462,-0.02179759776436456,0.07817592091918155,-0.1423713668923182,1,1,1,1,172.91620658456753,42.78672673649851,80.18038950951154,68.30002662672621,364.1833494573038,-0.1738911122083664,0.5657752752304077,-1.4464480876922607,0.4045634865760803,1.2605726718902588,-1.841975450515747,-0.31379494071006775,0.007310377433896065,0.47812265157699585,0.4699733853340149,-0.7739652395248413,1.2412781715393066,-0.2129726345113652,2.006883495815137,-0.8330035993317005,-0.05505374406503989,1.0535948303196179,0.1964940755951477,-0.27501701415148416,2.185555705717853,-2.5149215543221572,-0.28965414697672315,5.340881681837939,-5.186907960779754,-26.811520215600464,30.940622588771564,-28.82043743438204,-4.654636201617449,-11.340750324874971,2.6063831614290214,-5.5630316610118795,3.352050822946068,5.1490749611760345,-16.126597810239534,52.029873551249366,-111.06488768432347
1727776115.5365593,161622,212.53739397342378,12.746763351651385,10.59001623731632,-0.020072100690145016,-0.24748608896692237,1.9644544288439365,0.5607639350705538,0.042084239513787446,0.15023050557101347,0.021448120353656792,0.07133350409374012,-0.1324418317925814,1,1,1,1,177.4854322083154,-43.184641408924,64.90841951496868,53.57376938617588,252.78297970053595,-0.1738911122083664,0.5657752752304077,-1.4464480876922607,0.4045634865760803,1.2605726718902588,-1.841975450515747,-0.31379494071006775,0.007310377433896065,0.47812265157699585,0.4699733853340149,-0.7739652395248413,1.2412781715393066,-0.2129726345113652,2.006883495815137,-0.8330035993317005,-0.05505374406503989,1.0535948303196179,0.1964940755951477,-0.27501701415148416,2.185555705717853,-2.5149215543221572,-0.28965414697672315,5.340881681837939,-5.186907960779754,-26.811520215600464,30.940622588771564,-28.82043743438204,-4.654636201617449,-11.340750324874971,2.6063831614290214,-5.5630316610118795,3.352050822946068,5.1490749611760345,-16.126597810239534,52.029873551249366,-111.06488768432347
1727776115.5387805,161623,212.53739397342378,12.746763351651385,10.59001623731632,-0.020072100690145016,-0.24748608896692237,1.9644544288439365,0.5607639350705538,0.042084239513787446,0.15023050557101347,0.021448120353656792,0.07133350409374012,-0.1324418317925814,1,1,1,1,177.5008669011123,-43.171994347201405,64.91377651817035,53.60529562991372,252.84794470199495,-0.17614413797855377,0.5755064487457275,-1.4504987001419067,0.40341299772262573,1.2662053108215332,-1.8410645723342896,-0.3159281313419342,0.016586167737841606,0.4687030613422394,0.46855923533439636,-0.7458981871604919,1.2064999341964722,-0.35754173507507137,1.8882744235043325,-0.7751315775266518,-0.13426004559590146,1.0925772169603025,0.18171650263429906,-0.3843399100572914,1.8621476147881646,-1.9467150967811404,-0.23101406119091725,5.364808985809811,-6.371068824203874,-21.82244264639421,1.6618584597382484,0.037607296701335946,0.11044042487823172,-6.637334333151086,1.6243236675975898,-7.649656990924769,-10.851575036894818,41.85381571643976,3.3996094205346483,36.651789655941904,-153.36485532133315
1727776115.5414376,161624,212.53605466092054,12.74895745074793,10.59134856309494,-0.019769865640078804,-0.24714821960367664,1.9638641337733798,0.5522790355263861,0.04416210365552752,0.14381138664979645,0.08568518768468414,0.04533830983127961,-0.12890333984378127,1,1,1,1,174.54916927340287,-71.52666859835853,49.398852705202295,42.93340922104121,195.35476260128786,-0.17657557129859924,0.5796530246734619,-1.4521764516830444,0.4033410847187042,1.2692493200302124,-1.840201735496521,-0.3171984851360321,0.020421119406819344,0.46558713912963867,0.46728891134262085,-0.7324278950691223,1.1860787868499756,-0.2486870977903057,1.6663914928086996,-0.6804912546321832,-0.08290861559472212,1.086167953612377,0.2514594734522134,-0.4553733821604309,1.730646512535423,-1.6358281240325687,-0.3632919908888784,5.486238345715009,-6.852177929874395,-4.191986797042813,-25.773547321787685,15.773950008174513,1.821210700933957,-5.354033969197404,4.790443435615767,-9.696476318340354,-15.202743499665521,56.529339606688914,-9.424232279062021,34.76135327826464,-153.0828329534804
1727776115.5436637,161625,212.53526100886438,12.750098178043633,10.591994819282883,-0.019446486014657184,-0.24702993085765043,1.9636092323443868,0.5502903370906049,0.047024835835697096,0.14610007317851342,0.12584029529385482,-0.012206308115920425,-0.1181066148955598,1,1,1,1,165.42966088812025,-39.536621673057155,49.28194107997544,22.935752788454074,198.11073308349262,-0.1768871694803238,0.5831044912338257,-1.4535906314849854,0.40290966629981995,1.2714303731918335,-1.8394107818603516,-0.31863656640052795,0.024327976629137993,0.46244728565216064,0.4657309651374817,-0.716225266456604,1.1685818433761597,-0.19125474723647234,1.5575720342174582,-0.6350507689270836,-0.12888998931721685,0.9989279894655069,0.2884027941595222,-0.4805435501235287,1.547158042380326,-1.3594247597637517,-0.4942407202420242,5.641654168503472,-7.05437577247757,-0.9676041217505902,-30.62652084769213,16.06433097342461,-0.9211974079124963,-8.645845686182534,5.696817955216992,-8.098876873070463,-21.10661530541734,60.719727708129355,-13.911054977226417,35.6128819925865,-142.78707348452278
1727776115.5464616,161626,212.53456698907283,12.751198348303273,10.592586126203695,-0.01905406640851879,-0.24706149886311837,1.9633601745928995,0.5461653047399645,0.04623832344986212,0.13829529984701883,0.13000551516389697,-0.042004755909146804,-0.1084395605979222,1,1,1,1,162.5238388194508,6.167860869966603,48.87666448252144,-1.9472326904327635,215.62113148150607,-0.17715081572532654,0.586675763130188,-1.454813003540039,0.4025261700153351,1.2736355066299438,-1.8385239839553833,-0.3195473849773407,0.02725212834775448,0.4596908986568451,0.46486809849739075,-0.7029227614402771,1.1516600847244263,-0.15342553015373794,1.5241655079510723,-0.5739426069234251,-0.14379599322163458,0.9583804630521825,0.2970547553956739,-0.4276544691655864,1.3930790598800558,-1.2643388234398856,-0.3880512497405338,5.590830668576508,-7.061610249578771,0.4550507568391246,-25.385840069236206,17.34292313488714,-1.3798801339120004,-9.989596877403816,5.256461206337136,1.2962081731250776,-25.254938777439975,18.861295668256044,-2.4143667168312724,20.480174303267887,-33.45047401701043
1727776115.5489223,161627,212.5338661590225,12.752295154474117,10.59331370168147,-0.018610539580425797,-0.24718773422197493,1.9631240727532502,0.5396536085251509,0.04234560778596928,0.12363998889317813,0.12774712658344572,-0.06267693242736103,-0.11162946396366234,1,1,1,1,161.84905373550552,20.782529310887384,47.36567022997679,8.833784271268456,238.83103754763815,-0.17722272872924805,0.5903429388999939,-1.4554601907730103,0.40226250886917114,1.2758885622024536,-1.837876796722412,-0.320122629404068,0.02991262637078762,0.4565750062465668,0.4640531837940216,-0.6896442174911499,1.1314786672592163,-0.08122946339910274,1.5233095346872072,-0.42916088623618975,-0.11466747322300036,0.8752756557089056,0.2848803807884857,-0.3367487053901142,1.2560943757847862,-1.2851296560169434,-0.37737230666445226,5.569390890220825,-7.149096689284527,4.338663323556126,-18.65778755039655,32.19315625159989,-0.3499922975630772,-12.90885100001449,3.2559373392051083,11.949502611064117,-27.67015317844622,-8.80858506881066,-3.5331036991262326,11.956270502342337,-29.585120465556418
1727776115.5511537,161628,212.5332098390822,12.753326632173895,10.59396477784473,-0.018190815198414288,-0.24736175262081345,1.962895363287962,0.5330729382481473,0.037778275177502645,0.11018066962022843,0.12230738528023846,-0.0937163467868679,-0.12217796157843848,1,1,1,1,161.0533213092245,-20.80350427899447,31.255592435066063,16.858432224238832,188.36384168953492,-0.17700700461864471,0.5946332812309265,-1.4561792612075806,0.40231043100357056,1.2777341604232788,-1.8377569913864136,-0.3206978738307953,0.032165661454200745,0.45336323976516724,0.4619918763637543,-0.6730340719223022,1.11029052734375,-0.0007202654731861311,1.5270457166699931,-0.34067084259601477,-0.04346008005592185,0.8212701443324886,0.14588669119064446,-0.268502239690121,1.007424605186323,-1.2039563062542464,-0.575243194931279,5.767552845350041,-7.366860442143108,8.0886958745392,-12.660614559014896,13.278784848083,2.646559476475902,-14.159360127782135,-15.498117891959517,13.490296830282619,-36.369329464405915,1.6608010516274325,-14.282911094969744,20.644633022695768,-40.950575870599614
1727776115.5538568,161629,212.5326193258445,12.754255460075166,10.594524853315857,-0.01781181184310433,-0.24759430059644844,1.9626676271677186,0.5271864572038966,0.03793630994714659,0.10008245428785614,0.1551523316806546,-0.1370983281937072,-0.12286472720771892,1,1,1,1,167.53512821198038,-113.59603157609118,4.215827377428951,2.5042445499591,60.65916856327725,-0.17671938240528107,0.5990674495697021,-1.4569222927093506,0.402646005153656,1.2798672914505005,-1.8390752077102661,-0.32112929224967957,0.03334011510014534,0.45271608233451843,0.4599305987358093,-0.6564239263534546,1.0923861265182495,0.05690888959682148,1.5590136366050316,-0.2990316281952181,0.04521774765002273,0.7903056036276509,-0.2002686819990363,-0.2090812318489198,0.6875783257670475,-0.6524913115633081,-0.6492445353650947,5.842712311318149,-7.401283130812927,9.511191412871943,-7.126574335945728,8.310435993221377,6.396466592571633,-13.884547469632421,-43.96701486665779,14.318224611024196,-48.984749114457735,157.7752162677564,-4.539697497920992,23.130500022157378,-35.93528640468037
1727776115.5563633,161630,212.53197234385064,12.75530094342061,10.595112210243697,-0.017304248874452293,-0.24796440073314763,1.9624049336517897,0.5185577831762774,0.04111668842241295,0.08456563418312169,0.22825498761337293,-0.17491606403434898,-0.11660844349145817,1,1,1,1,174.64521133927704,-213.01117148167367,-11.914711493482159,-3.592962086795987,-53.873633722674775,-0.17671938240528107,0.5990674495697021,-1.4569222927093506,0.402646005153656,1.2798672914505005,-1.8390752077102661,-0.32112929224967957,0.03334011510014534,0.45271608233451843,0.4599305987358093,-0.6564239263534546,1.0923861265182495,0.05690888959682148,1.5590136366050316,-0.2990316281952181,0.04521774765002273,0.7903056036276509,-0.2002686819990363,-0.2090812318489198,0.6875783257670475,-0.6524913115633081,-0.6492445353650947,5.842712311318149,-7.401283130812927,9.511191412871943,-7.126574335945728,8.310435993221377,6.396466592571633,-13.884547469632421,-43.96701486665779,14.318224611024196,-48.984749114457735,157.7752162677564,-4.539697497920992,23.130500022157378,-35.93528640468037
1727776115.558699,161631,212.53197234385064,12.75530094342061,10.595112210243697,-0.017304248874452293,-0.24796440073314763,1.9624049336517897,0.5185577831762774,0.04111668842241295,0.08456563418312169,0.22825498761337293,-0.17491606403434898,-0.11660844349145817,1,1,1,1,174.6548969875209,-213.00185443775192,-11.952074489628659,-3.5103466167083393,-53.809378556568,-0.17647969722747803,0.6076481342315674,-1.4579049348831177,0.40341299772262573,1.2837262153625488,-1.8459062576293945,-0.3225674033164978,0.03242931514978409,0.4635258615016937,0.4568865895271301,-0.6268469095230103,1.054635763168335,0.04195323230223599,1.6202834857763715,-0.21679050896058916,0.10494289889068398,0.7455683422531435,-1.1557344816856951,-0.27995618761055074,-0.005988345536152045,1.6826730610280352,-0.668066859132907,5.730418526058303,-7.319964572191793,3.8065801161989983,-1.1728329745694128,10.482589540490487,6.034089197780115,-12.359164164693883,-79.06129310858655,3.2404301516517404,-59.761328469791486,292.72144922038757,-0.18092923892655802,7.482691171646687,-7.657566579362304
1727776115.561281,161632,212.53080046207538,12.757259994744325,10.596119538500496,-0.01600597096055372,-0.24885791432264734,1.961901238067779,0.49770387279838685,0.0451317606207178,0.051912135925248515,0.3378537125750952,-0.24079905286972234,-0.09812468428550679,1,1,1,1,181.98592035142707,-267.7267190243967,2.5840839989883673,20.770737130431925,-62.38597754354933,-0.17650367319583893,0.6120583415031433,-1.4584323167800903,0.40348488092422485,1.2853320837020874,-1.851994276046753,-0.3236220180988312,0.030943268910050392,0.47503072023391724,0.45420214533805847,-0.6129212379455566,1.0334956645965576,0.01521249109369651,1.5971478397280399,-0.20101162904176273,0.06422404175369972,0.6518362738036895,-1.7100000898684746,-0.3581190751098869,-0.2994470563581353,3.1874277198999015,-0.8204670514610184,5.763106697910154,-7.443121657854181,0.6496468557820216,-1.044448370003309,8.69039744174236,3.3727032377254687,-17.35923925762162,-89.71302560254625,-1.7676589922072896,-62.261742720391545,341.63531563927177,-15.38050151294504,7.734812099412271,-12.425657438158764
1727776115.5637717,161633,212.53017202033493,12.758154191952551,10.596498594948525,-0.015045224195584034,-0.2495038255287545,1.9617229399842513,0.48972230507610254,0.05253094067732981,0.045918488616591174,0.41255733632736086,-0.3216740110262777,-0.07068411702641995,1,1,1,1,184.45635067408233,-203.3539876058129,17.93841038958323,18.235247179954886,17.27602063780754,-0.17667144536972046,0.6157974004745483,-1.4588158130645752,0.4036526679992676,1.2865065336227417,-1.8578425645828247,-0.3247964680194855,0.02847451902925968,0.49008291959762573,0.45216482877731323,-0.5995708107948303,1.0155432224273682,-0.025984155868199386,1.5804894675039716,-0.1837482407134881,0.06902995312853229,0.572502752235317,-2.0520574323846335,-0.42140928983032333,-0.6495613683110302,4.663270835661758,-0.828530237714424,5.661322278943979,-7.460255903675533,-2.638615133786141,-1.107188683570536,8.114468349672332,3.22158755457013,-20.83040288979868,-90.75378043443374,-4.263041266506672,-67.37499923017045,367.6446246228809,-12.335182931709939,4.048674641934597,-12.290882844873124
1727776115.5662515,161634,212.52955351327552,12.758974773881437,10.596808286794154,-0.013922226384174072,-0.2503534358949519,1.9616209042104786,0.4784015909712513,0.05301795342170619,0.027518035955654524,0.4641501333376926,-0.35621995864242323,-0.0646483967479997,1,1,1,1,186.62899832392483,-99.94568799220716,28.012850220353165,19.91934575693935,134.6155063090102,-0.17710287868976593,0.6197282671928406,-1.4591753482818604,0.4037964940071106,1.2874653339385986,-1.8648653030395508,-0.3262345790863037,0.02461559884250164,0.5103122591972351,0.44986385107040405,-0.5843987464904785,0.9976627826690674,-0.10097799298215242,1.6069034981437045,-0.16710394995368363,0.06230809500587486,0.4839555588226246,-2.286919478389849,-0.47116933959974744,-1.0399014552056758,6.021068337420445,-0.8295844500319318,5.533416244425763,-7.456644657237385,-8.538186600167753,-0.47794701799497186,7.454782308687093,2.5536577650095778,-25.298281724181017,-86.34641075054687,-5.427550797405151,-70.99218984387095,365.8851742255225,-7.72598052460535,-0.0765243942834217,-11.395471893689484
1727776115.5687926,161635,212.52903291082373,12.759947842971595,10.597152809472531,-0.012769373860218853,-0.2512111769396885,1.961467342599431,0.46825111568446537,0.052692459321680915,0.009421032286814224,0.525125586100826,-0.38621156545801205,-0.07099822583198327,1,1,1,1,189.19655049172212,13.223799314208634,30.175933208983977,22.304597998690447,254.90088101360516,-0.17791780829429626,0.6242343187332153,-1.4594868421554565,0.4036766290664673,1.2879925966262817,-1.8708094358444214,-0.3279363512992859,0.020013656467199326,0.5312607288360596,0.4471074640750885,-0.5686754584312439,0.9761391282081604,-0.20321887359797722,1.6101318485961258,-0.1368690113577976,0.007471915337360603,0.3250659836096682,-2.38077852968903,-0.540821455012598,-1.3621682484502105,6.775214438583867,-0.9855529952598836,5.590888991804381,-7.587657002851071,-13.501215258119725,-0.21912366277971554,9.45393877575742,-0.9970705344737174,-32.141115953370864,-73.79941942680799,-7.709141889664997,-72.09462987819128,339.2771014077087,-20.30717802201743,-0.09253511901989632,-12.911045711068825
1727776115.5712948,161636,212.52846224085238,12.760959715208735,10.597473525499284,-0.011382165825261163,-0.2522002560986469,1.9612961476337702,0.4588953346577255,0.05165071576077168,-0.006409628817145421,0.5836048698337636,-0.43080122518828917,-0.08249193139902837,1,1,1,1,191.4335930085022,74.23241987451169,11.875937119515285,24.91208510113041,302.4540351036596,-0.1787806749343872,0.6279973983764648,-1.4597984552383423,0.4037725031375885,1.2881604433059692,-1.878623127937317,-0.3292785584926605,0.015363777056336403,0.5489254593849182,0.4434402883052826,-0.5547018647193909,0.9572519659996033,-0.2768951668983705,1.592389503229368,-0.13596764784210347,0.027340124102861945,0.2053007082339842,-2.609275753847011,-0.5479667495067942,-1.6361961396057039,7.048637725592886,-1.1577459339675185,5.703926597956686,-7.725746432745532,-14.878076465909524,-0.32905720487872114,7.196439970298975,0.37240329747879836,-31.855881813243457,-69.84885643838024,-6.229738859895003,-73.38409412848796,286.1998321660776,-30.612996250412273,1.4688575110645248,-15.362972586650137
1727776115.5741305,161637,212.52790470323382,12.76194949697374,10.597747072318846,-0.009854806716623173,-0.25329055213150664,1.9610972574301788,0.4498951705205855,0.048956417189266216,-0.02358753145353219,0.6281582341819396,-0.46889116483324605,-0.09790405816352886,1,1,1,1,193.4256367127008,94.72545477365387,-11.696538300976815,26.48388948415789,302.9384426695357,-0.18005099892616272,0.632407546043396,-1.4601340293884277,0.40470728278160095,1.288543939590454,-1.886508822441101,-0.33062079548835754,0.009275790303945541,0.5686035752296448,0.4404682219028473,-0.5386430025100708,0.9354646801948547,-0.37138686043687763,1.585267677842278,-0.12913629010615715,0.19455881052644677,0.17293174120591484,-2.937682664721805,-0.5085414958215863,-1.9274626392077667,7.0193898252372,-1.190120818206635,5.716112557314616,-7.7516035964013295,-16.662353383581827,-0.35906063571328445,6.209265409540856,11.789162470262044,-10.098195526651175,-79.39322098473853,-1.0161574100063153,-74.29694692059884,4.025433235101475,-18.01652765467746,1.8863263877459668,-16.190079048511535
1727776115.5763967,161638,212.52733879076087,12.762956739481622,10.597979501934196,-0.008157550143108289,-0.2545103528274567,1.9608525678393836,0.43939172376019764,0.04709337383960765,-0.04614674369356763,0.6691056079189058,-0.4879105122071193,-0.10894540695241321,1,1,1,1,195.123594355323,70.5791957139696,-15.754739798363538,29.296391707393834,279.2444419783229,-0.18158498406410217,0.6361706256866455,-1.4603737592697144,0.4060974419116974,1.2889513969421387,-1.8974863290786743,-0.3316993713378906,0.0037390782963484526,0.584734320640564,0.4370407164096832,-0.524813175201416,0.913485586643219,-0.4640215983262997,1.5792895469853228,-0.1154571587428577,0.35123715892512114,0.17048526156002716,-3.4671748826543944,-0.4791191750592566,-2.105081435741302,6.871646702707309,-1.2110442762059785,5.736029140684828,-7.810758529482497,-18.155148385209394,-0.40257293453251786,5.761069379676243,16.026591850249314,-2.2641524471258982,-99.28116045953017,1.558375876102985,-73.65558955318386,-13.155889018523547,-10.334791290526033,2.2355397106901957,-16.852336904161465
1727776115.5788167,161639,212.52681446906692,12.76389679804113,10.59813973777862,-0.006452012696400235,-0.2557045375845981,1.960592883499153,0.4301769639541881,0.04915981934550476,-0.0644018903150131,0.7160564269507307,-0.5157647446148234,-0.10450071620010246,1,1,1,1,196.36298874539236,44.72391247423458,-8.517283007738556,27.436757580542366,260.00637579243073,-0.18319086730480194,0.6404370069503784,-1.4605894088745117,0.40717604756355286,1.2892149686813354,-1.9101896286010742,-0.3329697251319885,-0.0028282771818339825,0.6025189161300659,0.43301403522491455,-0.5082510113716125,0.8944546580314636,-0.5615268001186644,1.5498364167781322,-0.09427652052540171,0.3966597431942684,0.12555765074660635,-4.044163380206057,-0.4669261250349242,-2.2303809013426035,6.59828014102951,-1.3301319185646705,5.835113114305662,-7.869426104084179,-20.00313823616853,-0.8140558906108161,6.12348072977166,14.365044580884442,-6.116806714921867,-114.22075914241383,2.3136051514607705,-70.98682091111336,-30.005274607564985,-18.18707755615057,3.409448469181946,-17.454664047904686
1727776115.581231,161640,212.52628747201652,12.764826002761305,10.59825202211792,-0.004630145361067547,-0.25696887023701853,1.9603426740590533,0.42255368158951934,0.05121854486964466,-0.07714097330474873,0.7527010379593229,-0.5637689171918427,-0.0908112801728087,1,1,1,1,197.6066670551317,5.264330174884684,6.147620410400117,18.386587121471187,227.40520476188772,-0.1854439079761505,0.643984317779541,-1.4607332944869995,0.4086141586303711,1.2892630100250244,-1.9220061302185059,-0.3341202139854431,-0.008652610704302788,0.6179066300392151,0.4296824038028717,-0.4945410490036011,0.877245306968689,-0.6922446833395708,1.5141874422948725,-0.07616198383214315,0.46204020647528077,0.06760654554074998,-4.460659537299348,-0.4743802130575151,-2.3242245728864885,6.509985565090968,-1.3486463476209558,5.7705485021022165,-6.9217231859485056,-22.504330662439113,-1.4235042105956115,6.492471019865953,13.831911155951442,-9.806885384496749,-119.0617979782092,1.7213635319237337,-67.60780638107856,-32.01387544280906,-16.7539911587948,2.9876187327945263,36.92164244287745
1727776115.583741,161641,212.5257481571684,12.765763190773143,10.598332016097213,-0.0026865171019406823,-0.25837906076051675,1.9601206139047638,0.414323837367272,0.05090732137895258,-0.09038451963535772,0.7855383704097502,-0.6099407865316269,-0.08164364992521037,1,1,1,1,198.55179198514074,-25.122656431331578,20.820145241887985,50.824031624463416,245.07331242016056,-0.18748122453689575,0.6481788158416748,-1.4608291387557983,0.41017210483551025,1.289095163345337,-1.9345415830612183,-0.33541449904441833,-0.015915051102638245,0.6363384127616882,0.4268062114715576,-0.47941693663597107,0.8649734258651733,-0.7658129438458693,1.506404786772793,-0.052372635765927045,0.5527544473564843,-0.0015158249992432162,-4.817479847002252,-0.46716176485712574,-2.4688849532965573,6.553213063798753,-1.2622071294348451,5.581115856394063,-6.035035152599311,-22.802560496053893,-1.7408309065970766,6.775822438260732,16.628831109676565,-14.413804397282703,-120.00345765119926,1.7421190110373206,-65.0157623447488,-26.872316987493665,-3.9172108905161434,-0.08955017316872986,64.45406332133139
1727776115.5861776,161642,212.52522296140725,12.766670721003877,10.598374554270814,-0.0007043057935900843,-0.25987579494836366,1.959923689553112,0.4047808733034665,0.049579072906957435,-0.10513522483839072,0.8224959104510944,-0.645125218426607,-0.08097177608918178,1,1,1,1,199.3565597816683,-53.939676685132426,33.91163956054256,99.04929443010478,278.3778170871832,-0.19004584848880768,0.6517740488052368,-1.460853099822998,0.41184988617897034,1.288543939590454,-1.9488028287887573,-0.3365649878978729,-0.022554311901330948,0.6530683636665344,0.42333078384399414,-0.46604254841804504,0.8468053340911865,-0.843418190380078,1.5017829705695014,-0.03382508156298922,0.5697434343851291,-0.11495040079930764,-4.958711540666898,-0.47689934706689147,-2.6169704251845767,6.767018826645257,-1.2548813724872825,5.584023628830266,-6.302850221826786,-22.83186112699916,-1.9098827799570175,6.899615486791431,15.038607555361757,-22.443073696309547,-108.11219198158855,1.1056861613730269,-64.07121367460822,0.26996184338218776,-4.5082437012343926,-0.6438255684685151,35.87210557097933
1727776115.5886726,161643,212.52468561581634,12.767600627742913,10.598377275289115,0.0014475976756218318,-0.2615183713007667,1.9597176835740968,0.39413739639404055,0.04672611650783953,-0.12036435441800046,0.8430224217827612,-0.6790769604565863,-0.08148975607366012,1,1,1,1,199.17624846214508,-63.19340380744502,36.09144389120327,115.82853617006967,287.902824715973,-0.19213110208511353,0.6559685468673706,-1.461020827293396,0.4128565490245819,1.287153720855713,-1.9605473279953003,-0.33793118596076965,-0.03118295408785343,0.6734415292739868,0.41975948214530945,-0.4482819437980652,0.828757107257843,-0.8569499781948796,1.501576242689884,-0.054647797171722357,0.49235280534526704,-0.32535882313865766,-4.924744252543483,-0.48092075360242476,-2.87195098874966,7.068371749270373,-1.3693277242772113,5.994132194049001,-6.916726563111299,-14.312425844066658,-1.9644135998584527,4.431084068129581,7.070261262063784,-33.41636531503313,-55.11087396371768,0.8781500720524554,-66.30553339120304,16.921140736188097,-10.469915823178908,6.699666683728827,5.464089101244929
1727776115.5911558,161644,212.52418400075192,12.768475144902373,10.59833818941098,0.003553408958491033,-0.2631694489582089,1.9595158885885295,0.38427758174811094,0.0442067970526415,-0.13380902645723358,0.8577548246344757,-0.7169986327834449,-0.07632761042218046,1,1,1,1,193.95880172018343,-66.8826886251517,20.11496180150911,97.44106273885707,244.6321376353979,-0.19469572603702545,0.6597795486450195,-1.4613324403762817,0.41374340653419495,1.285284161567688,-1.9739457368850708,-0.33903372287750244,-0.039739690721035004,0.6924005746841431,0.4157807230949402,-0.43239083886146545,0.8050763010978699,-0.887237909535269,1.544725644198702,-0.09058814436477744,0.404887862342934,-0.5409898833067888,-4.851611319006871,-0.4692940081391409,-3.2047670957042165,7.464002971329275,-1.395949980824675,6.290105398114102,-7.723610843867397,-11.02792050953216,-1.384308005408907,1.9378811251292385,0.7328483858071388,-40.03110778634097,-10.08801213127493,1.1625301364182776,-72.31059519836573,40.459810675448686,-10.675229564257478,15.341114958319421,-28.728079007778092
1727776115.593642,161645,212.52367536590356,12.76936733025273,10.59826010090884,0.005765688660946857,-0.2649715827211362,1.9593165810585902,0.3741189087709896,0.042207897213309115,-0.1490577754589014,0.8854163673239278,-0.7530313614450871,-0.06781113662437639,1,1,1,1,188.98411591590627,-55.28733196521135,-1.7701289200483403,59.00615497858497,190.93281000923156,-0.1967809796333313,0.6644054651260376,-1.461763858795166,0.41498973965644836,1.2830791473388672,-1.985666275024414,-0.3400164246559143,-0.05090899020433426,0.7161533236503601,0.4126887917518616,-0.4146062433719635,0.7870520353317261,-0.8774492945011148,1.60448468208364,-0.11968872613910105,0.4652795924014691,-0.6682778314255117,-4.875695216850839,-0.40404986541642696,-3.6246120447102275,8.001975626279057,-1.34933274410241,6.316276947936584,-7.675534128288742,-7.47702902485307,-0.3523791806571959,0.18244299633491587,5.260576988643799,-32.4654410372429,-6.904539405330878,4.918446542355717,-79.15415647053318,72.25285999646168,-8.166147523257537,17.16770577728756,-26.280456066834457
1727776115.5961418,161646,212.52317407516662,12.770228767265314,10.59814163066402,0.008008119463991888,-0.2668348556687898,1.9591413564233449,0.36363620368581967,0.03824893433303487,-0.16624714190822631,0.897355283373995,-0.7787071504021892,-0.062117444856215266,1,1,1,1,184.26708520799147,-23.928392437223017,-7.805887787787604,60.67402069126049,213.20682567424134,-0.19898608326911926,0.6683602333068848,-1.461883783340454,0.4164278507232666,1.2810657024383545,-1.9999035596847534,-0.3406635820865631,-0.06083192676305771,0.7369579672813416,0.40945303440093994,-0.3995301127433777,0.7704418897628784,-0.8309283809865268,1.627556212528728,-0.08383734933240063,0.5265244744375894,-0.7495377172788793,-4.985702012524579,-0.3379405365569519,-3.8667217504640394,8.320029764732277,-1.245393162024089,6.305652533083822,-7.2882479215056035,-3.0360665598710845,0.294021872644886,1.9012213811437528,7.89649287550709,-27.00140786238086,-9.679115970142453,8.569949589856911,-80.20127732269037,84.11026304017982,-2.2399782681209763,16.89164356395438,-15.066265548546665
1727776115.598653,161647,212.5226772645547,12.771095678981432,10.59797496936859,0.010314073653247727,-0.26879164722044063,1.9589732100166861,0.3527722272943885,0.034257631757369116,-0.18408406114422834,0.8880630612486029,-0.8002677169379867,-0.05316553474964803,1,1,1,1,180.14676974215342,0.578934454793604,-4.164717093030614,75.97099484334137,252.53198194725778,-0.2009275257587433,0.6728423237800598,-1.461883783340454,0.4175304174423218,1.278261423110962,-2.0126547813415527,-0.34135866165161133,-0.07295996695756912,0.7617892622947693,0.40645697712898254,-0.3814578950405121,0.7485107183456421,-0.8203375219634996,1.6113343656968373,-0.03770523965191011,0.45138523184900997,-0.8857624517123379,-5.14283078052618,-0.29359436038852266,-4.118587014764976,8.601675028974698,-1.2380088821115718,6.385836585080582,-7.552627113452713,-1.4399492636163644,0.41993403174447397,4.594082310015663,3.2262520146403766,-30.376795167010965,-14.366460317319929,9.191886920286931,-79.94733319484253,88.53012188431471,-1.6505683211919937,18.207808667340185,-20.929013886009916
1727776115.6014228,161648,212.52220358203652,12.771936563658091,10.597758526163343,0.012550586959656898,-0.27076658115402,1.958825211400622,0.3420304872756334,0.03315783682918257,-0.20147953122001916,0.8990263402005231,-0.8198321189213155,-0.03761955699851508,1,1,1,1,176.89392475907272,28.308733844762806,2.575590160246127,65.31214576725532,273.090394531337,-0.20315659046173096,0.676773190498352,-1.4618357419967651,0.4184172451496124,1.2756009101867676,-2.027635097503662,-0.3419818580150604,-0.083673857152462,0.7832889556884766,0.4030534625053406,-0.365255206823349,0.7292640805244446,-0.8114586594024731,1.6237109740993034,-0.012961544688172205,0.41373698904591405,-0.9932913091498132,-5.254236934194702,-0.2826149378400746,-4.285890789185388,8.776790920136749,-1.2296260166588158,6.5557553173753425,-7.812859763582569,-0.1993785037599205,0.7014961054923425,5.05365935879873,1.4930702393262254,-32.77088857004401,-17.58060866428006,8.369286526989947,-78.8120915380079,87.02510776697365,-1.0472187233272638,21.722709926731834,-25.832153377368186
1727776115.6037636,161649,212.52169801112538,12.772828721056353,10.597474958652079,0.01497870005907181,-0.27294492750074456,1.9587037716748341,0.3302812603377234,0.03197296302564053,-0.21989955989084153,0.9400994658538578,-0.8416906634102006,-0.025619651981097242,1,1,1,1,176.52424481580246,51.9190123363283,12.053916159027132,40.42844701078973,280.92562032194763,-0.20507405698299408,0.6814230680465698,-1.4617878198623657,0.4195197820663452,1.2722454071044922,-2.040290355682373,-0.3428926467895508,-0.09642507880926132,0.8071135878562927,0.40048885345458984,-0.3466077744960785,0.7072849869728088,-0.8053429096961879,1.6439100855716593,0.0016633838892823214,0.4060622165151181,-1.108700992885051,-5.258591202576981,-0.3052092963968477,-4.418688784309971,8.621142203910958,-1.156499075234657,6.617558764160593,-7.852441261599981,0.31441001029798865,1.0656046215714392,4.484194158168487,1.1523221733809768,-33.649981001648186,-16.006236244773405,5.990487391781119,-76.65990370943112,43.72344108809471,1.5017636959411118,22.618813566115005,-25.00421441135003
1727776115.6062648,161650,212.52124786863394,12.773610927027917,10.597171830820022,0.017240302297754563,-0.2749440074950975,1.9586209979004015,0.3213667510816516,0.0295319802972648,-0.23104744230402516,0.9791125204897362,-0.8832724021837407,-0.02352011719300524,1,1,1,1,177.28906795665338,66.71175802864876,17.020881227943313,18.162981898162247,279.1846891114077,-0.20727916061878204,0.6858811974525452,-1.461596131324768,0.42031073570251465,1.2683864831924438,-2.054647445678711,-0.343731552362442,-0.10927216708660126,0.8300034999847412,0.39758867025375366,-0.3274329900741577,0.6850183010101318,-0.7905017953762057,1.6125111167140025,0.03911868847363175,0.33386252952587603,-1.2611353402541428,-5.185260529329431,-0.3056096943443627,-4.506940217038854,8.363509331637239,-1.10403034096527,6.749525054076745,-7.914728072123081,0.9158827037725932,0.8865425248851357,6.257940936890616,-2.495878221473382,-37.096433162070404,-7.959173567555413,4.9196317821988576,-72.50929684308986,-5.598566086278753,3.6144793825527484,24.39612685016897,-23.17549679193536
1727776115.608674,161651,212.52078560430047,12.774419687979092,10.596824033220875,0.01970199471646213,-0.2771358280518754,1.9585329146958863,0.31224725404559006,0.025276876332397225,-0.2440653022829631,1.0045987734176856,-0.9255621680122945,-0.02861964388574224,1,1,1,1,177.0747432948372,63.573514625913155,18.13979700271271,-6.638407153173775,252.14964777028928,-0.20905283093452454,0.6895003914833069,-1.461236596107483,0.42028677463531494,1.2645035982131958,-2.066176414489746,-0.34442663192749023,-0.12072908133268356,0.8488666415214539,0.3948802351951599,-0.31079888343811035,0.6651005148887634,-0.7663597241071761,1.5648612392790595,0.0900957237986272,0.16791394623804204,-1.432462119106743,-4.996835357461655,-0.3014326676550063,-4.633737710753325,8.125580921952906,-1.1158821401854224,6.841393725356228,-8.097475517704863,1.8986861183650245,0.34605480556901663,9.779379191493975,-12.513617654222447,-41.82996231518814,1.4062401356711185,4.408049588913159,-69.65325471316497,-21.177394137708376,3.0676497861866614,25.544017456917025,-29.44407732369695
1727776115.611204,161652,212.5203247794236,12.775237080336971,10.596432283659647,0.022284897446971215,-0.27947865046550063,1.9584219347361462,0.30180396131754494,0.02141773916586736,-0.26076228362769316,1.0133361489859825,-0.9451619937507162,-0.03748934465260207,1,1,1,1,176.13651108243556,53.58508464319568,16.584809520981334,-28.065685290754114,218.24071995585845,-0.2112099826335907,0.6931915283203125,-1.460853099822998,0.41968756914138794,1.2601412534713745,-2.078855514526367,-0.34512171149253845,-0.1329529881477356,0.8669868111610413,0.39087748527526855,-0.29466813802719116,0.6532121896743774,-0.7733724930476273,1.550722949815506,0.12381062539389279,-0.03183889914290002,-1.6133277417727616,-4.742837700075892,-0.29803067077713347,-4.858680014330214,7.844649118566518,-1.2995430833106156,6.7596972641764115,-6.456640983718082,1.8535177744338174,0.07096064921148806,10.155246029838962,-19.10243904600832,-45.727340911382576,14.198839360413688,3.9585884243727043,-69.6308010693823,-34.54149548184093,-3.2731824391068343,23.514818135905625,577.052483725277
1727776115.6141732,161653,212.51987641115065,12.776020947020328,10.596003132138183,0.02483595665644954,-0.28181146777630356,1.9582880814578818,0.28756527512458097,0.009400007287492842,-0.2805168270118057,0.8555587866074167,-0.8978479223530969,-0.045161117417297544,1,1,1,1,176.01613852843505,41.03489428953088,12.687807989610539,59.64219828228686,289.38103908986335,-0.2129836529493332,0.6977455615997314,-1.4604216814041138,0.4186569154262543,1.2545806169509888,-2.090672016143799,-0.34509775042533875,-0.1479812115430832,0.8874078989028931,0.3863714337348938,-0.2834988236427307,0.6500962972640991,-0.7483898782042984,1.588629852139476,0.1433718265613906,-0.20580987550608293,-1.8143729016771242,-4.4676755020331065,-0.11777601887707093,-5.125275488936487,7.539867109721817,-1.4349145908650833,5.194286648053983,-3.6000148225661466,2.7994466278093344,0.3144011469649857,8.985115098511544,-21.073828063972936,-48.09765761220339,31.517725335933992,26.52974552172907,-71.54413530611205,-48.39067350903601,-8.885000481548849,-120.73021939897978,768.9254084413524
1727776115.6162896,161654,212.5194213512599,12.776871062624018,10.595472393859563,0.027213294474581193,-0.28424171266175297,1.9581158869300863,0.2659425493147957,-0.01881778905788811,-0.3015021075404076,0.47519671834074506,-0.7584004479107521,-0.07027282034396642,1,1,1,1,176.90600627320083,15.306982391095705,8.110384692371658,447.04173502578584,647.3651083824541,-0.2142539769411087,0.7015326023101807,-1.460277795791626,0.4178180396556854,1.2487562894821167,-2.1003313064575195,-0.3436836004257202,-0.16147544980049133,0.9044734239578247,0.3832075893878937,-0.2808862626552582,0.6504558324813843,-0.5837330695255857,1.5790639439514793,0.0994764445029169,-0.24798961590081398,-2.109157869842859,-4.255643004998432,0.22134488893165294,-5.3762363437312315,7.345857688522307,-1.3824564426610295,3.2117421143362157,-1.667385384527517,14.94224639763942,0.22464834052681448,1.1899252756035958,-16.1050086285467,-55.46165062880081,42.27867087040454,44.05068073546372,-73.44025700008442,-56.437230451962996,-6.208684973581273,-263.24125304072254,448.2936134132755
1727776115.6187503,161655,212.51911713366493,12.777613499254828,10.59495163996038,0.02839675354974788,-0.2860252200159972,1.9579000603500403,0.24624210455190934,-0.048264083101609956,-0.3054083669382935,0.13138891083536075,-0.6241575333919894,-0.11395422627123852,1,1,1,1,179.27158336427055,-6.594211554551308,2.853496915888795,850.9823205253574,1026.5131892509655,-0.2136307954788208,0.7049121260643005,-1.4603737592697144,0.4187048673629761,1.2407987117767334,-2.1110212802886963,-0.3419578969478607,-0.1781095564365387,0.9235523343086243,0.3790131211280823,-0.2847931385040283,0.6533560156822205,-0.13476750261923767,1.373042833997872,0.023185379021243017,0.07211544163322765,-2.5102477066090683,-4.023325209940623,0.4310477525132677,-5.67641121704815,7.060827280218287,-1.4403812949242025,0.751184649386498,-0.2079749630544793,47.48382561255103,-6.570798715424873,-7.8260599878416555,25.567878847651915,-64.98491654773906,50.482243530144856,39.761596949289384,-76.23439661363149,-64.55932636131342,-6.844143705497843,-306.7240604800976,418.3245886892043
1727776115.6214905,161656,212.51890889387582,12.77838977174068,10.594387504112099,0.02881224412157419,-0.2875619556442781,1.95755611037975,0.23384296333688243,-0.056274826970881445,-0.2823412834152457,0.043822077454208005,-0.5569234443493897,-0.13309904142408402,1,1,1,1,180.042875736418,-26.7565474611769,-0.025755281227823446,1152.662770418346,1305.9233434123594,-0.21200095117092133,0.7078362703323364,-1.4614043235778809,0.41985535621643066,1.2311394214630127,-2.119410276412964,-0.3407115340232849,-0.19296999275684357,0.9397550225257874,0.37572944164276123,-0.2898983955383301,0.6598993539810181,0.2430672702908853,1.2017984466914962,-0.19120557446365755,0.2534233633414435,-3.0254075905031788,-3.7660099196268946,0.4656893530246914,-5.918350746808306,6.9104500250542005,-1.4079553778606975,-0.6080511590979126,1.200776392044151,51.58221002044472,-12.111833731097136,-28.49713820016191,12.80452592536838,-76.97780205296057,58.52664650838218,23.74650196546594,-77.830145694576,-66.00400390099766,-5.590841853853087,-293.86610568430785,452.9625396046701
1727776115.6240141,161657,212.5187430833594,12.779196380083452,10.59383962276353,0.029039106987845044,-0.28902073175872917,1.957133321365746,0.22531959178588937,-0.05742580358176337,-0.2587367085210656,0.09909289445106051,-0.4798448759334336,-0.14682592554863988,1,1,1,1,185.21791652825402,-41.08606666329243,-4.625439363465727,1313.5854118825623,1453.091822384058,-0.21200095117092133,0.7078362703323364,-1.4614043235778809,0.41985535621643066,1.2311394214630127,-2.119410276412964,-0.3407115340232849,-0.19296999275684357,0.9397550225257874,0.37572944164276123,-0.2898983955383301,0.6598993539810181,0.2430672702908853,1.2017984466914962,-0.19120557446365755,0.2534233633414435,-3.0254075905031788,-3.7660099196268946,0.4656893530246914,-5.918350746808306,6.9104500250542005,-1.4079553778606975,-0.6080511590979126,1.200776392044151,51.58221002044472,-12.111833731097136,-28.49713820016191,12.80452592536838,-76.97780205296057,58.52664650838218,23.74650196546594,-77.830145694576,-66.00400390099766,-5.590841853853087,-293.86610568430785,452.9625396046701
1727776115.6262877,161658,212.5187430833594,12.779196380083452,10.59383962276353,0.029039106987845044,-0.28902073175872917,1.957133321365746,0.22531959178588937,-0.05742580358176337,-0.2587367085210656,0.09909289445106051,-0.4798448759334336,-0.14682592554863988,1,1,1,1,185.13679792055564,-41.09106211367885,-4.549516603565991,1313.6364673157957,1453.1326865191065,-0.20852552354335785,0.7140440940856934,-1.4637532234191895,0.4210777282714844,1.2108381986618042,-2.1358766555786133,-0.33850643038749695,-0.2304326891899109,0.9794946908950806,0.3763046860694885,-0.29754433035850525,0.6809676289558411,0.5635472405691666,1.2170147171852863,-0.36661256993880054,0.2597704085884021,-3.6645726437088117,-3.315207920056612,0.4361332084175853,-6.5988657701532185,7.143368229779767,-0.025294429395085187,-0.8357013482264372,2.9936625771513796,17.77717072538441,1.7123028586840388,-22.326991298082955,-7.4307131913871745,-26.5080253125106,67.38063021797932,5.304746047954981,-82.56485409542442,-16.24346317782661,70.92620949523202,-137.25969329470766,261.28445601500266
1727776115.6288,161659,212.5184400754335,12.78057151696094,10.59293404615894,0.029747194728995716,-0.2913342280862187,1.9563164037036977,0.2102095458048617,-0.08500529876448562,-0.2288784483926459,-0.1543899094017025,-0.25844065071693484,-0.2041214601611165,1,1,1,1,196.66689105454824,-35.41627548723261,-6.124777940892704,1203.7861447799485,1358.9119824063714,-0.20670391619205475,0.7173997163772583,-1.4650715589523315,0.42225217819213867,1.1997407674789429,-2.1444332599639893,-0.3364930748939514,-0.24759408831596375,0.9984297752380371,0.3795643746852875,-0.2935176491737366,0.6803444623947144,0.6133092377751378,1.2028605486237334,-0.42890462356029685,0.34307460347354185,-3.8309524343890216,-3.1882386524518305,0.6361603084162378,-6.869577426540318,7.505430039982111,0.6447759175035099,0.35310352718418386,1.1919127594356083,11.143259086866292,1.3289480768811028,-23.204059194626456,2.169033853789165,-35.020953960267825,64.30173263750773,24.101671248451048,-84.06127152876671,9.112716733717164,107.63714369792685,-74.25538243283377,-139.00071035626493
1727776115.6312513,161660,212.51836500367455,12.781263705764383,10.592522222665904,0.029515902915727355,-0.29197022174895226,1.9557600113413371,0.1937071427874711,-0.11119282344384653,-0.2418039381092372,-0.618493214374827,-0.015550313088879553,-0.17518375528213379,1,1,1,1,206.10286377567024,-21.79358661433607,11.24897014211631,903.4663999886726,1099.024647292123,-0.20538565516471863,0.7199164032936096,-1.4671567678451538,0.42227616906166077,1.1886674165725708,-2.150904893875122,-0.3338805139064789,-0.26504313945770264,1.0176045894622803,0.3845977485179901,-0.2889156937599182,0.6806560754776001,0.5716423348213828,1.1279038157936083,-0.6571041395979207,0.16220798212211435,-4.213428972243476,-2.9368449674009205,0.8475900988067144,-7.068660169616429,7.7593142467054355,1.3198335744978749,1.082823955389619,0.7177677367918608,-3.0292665109227035,-2.5960040237126556,-40.95749476311164,-39.86364821699678,-72.03022185985994,68.61267245411614,34.025720008260855,-84.10531595213888,22.53370959032043,137.36702081716672,-56.18085752120099,-15.8416496936132
1727776115.633799,161661,212.51837956651156,12.781952707757544,10.592081602325393,0.028112604365684666,-0.29199647289371794,1.9552983942751805,0.19153220608221203,-0.09297968362850902,-0.20903091776749635,-0.5474530647330861,0.02801865554337292,-0.13063478182253657,1,1,1,1,220.56722053254833,-9.571607450242666,18.12612923685716,717.1505208270214,946.2722631461843,-0.20469056069850922,0.7218098640441895,-1.4695056676864624,0.4212934672832489,1.1765393018722534,-2.1563217639923096,-0.3327300250530243,-0.2869982123374939,1.0415970087051392,0.3894393742084503,-0.28896364569664,0.683580219745636,0.4546077899260604,0.9673488577601062,-0.8049687022735181,-0.08887884435338052,-4.6065530944521775,-2.3995823777767793,0.6061804215901865,-7.480995803296743,8.171891162780511,1.511608137489617,0.4523180539550807,0.979938485760265,-19.81357016871895,-17.279625654730356,-35.49933226055658,-42.319880625112425,-100.18629860659532,95.39081260861354,-0.07925467535534934,-86.77473653604424,44.141751257364504,62.00570215213358,-137.8026969272727,42.160554349737346
1727776115.6363256,161662,212.51836252491094,12.782621457766414,10.591711116538349,0.026813219624711088,-0.29191554675834575,1.9549455340960273,0.1920719453942156,-0.08222100549764336,-0.165143936961839,-0.38532152992864704,0.01759103719162968,-0.15906123121535407,1,1,1,1,228.84616768978452,28.736420008316745,14.168798255729133,711.0261347822401,982.7775207360705,-0.20303674042224884,0.7234397530555725,-1.471614956855774,0.4207421839237213,1.1629012823104858,-2.1598451137542725,-0.33201098442077637,-0.30552583932876587,1.061874270439148,0.39329829812049866,-0.29207953810691833,0.6895962953567505,0.5179190020072164,0.8342676853878634,-0.8335571207195167,-0.15127092880213375,-4.7428149300485725,-1.95913874326636,0.4570107268881252,-7.586691074323698,8.30420179942561,1.5390971531033604,-0.3745724172195327,1.6022980603811168,-2.3030330677234283,-24.91305920092658,-15.098181936314612,-30.545469137812223,-88.65540976516527,106.43053358493584,-4.134981034961339,-85.8011125383866,48.10610089812338,20.766667585958686,-152.7281254626283,76.68003081568551
1727776115.638802,161663,212.5183345354642,12.783250319289213,10.591448478484176,0.02594754658919572,-0.29186011855612237,1.9545169186084206,0.19038087315066343,-0.09263323717711387,-0.1325601264630233,-0.36918636872236266,0.03112018787512381,-0.24333058620206696,1,1,1,1,233.25546637712313,48.89996739695546,8.640008688439927,689.4042764424557,980.1997189049742,-0.20246149599552155,0.7251894474029541,-1.4736522436141968,0.4193999469280243,1.1512526273727417,-2.1646625995635986,-0.3316514492034912,-0.32635441422462463,1.0841169357299805,0.3960306942462921,-0.294452428817749,0.6941023468971252,0.37286464020338417,0.71790755274909,-0.7724741255881595,-0.35198789571403605,-4.789675646273498,-1.8348058054036753,0.2754012333953769,-7.510474599718939,8.13134054044242,1.2348385552814005,-0.5934238133896796,1.710607889808258,-25.855886936370755,-29.67562213624836,5.631281422373722,-40.94106518971473,-74.82974958092446,78.77126847429031,-12.240227124094837,-52.31849523228336,38.11625554778986,-59.28150567092747,98.97217198774368,36.837228758437426
1727776115.64141,161664,212.5183373656113,12.783827050845458,10.591270722479793,0.025227603145980368,-0.2917705691850421,1.9539026060078177,0.1884010887385509,-0.09076132242482904,-0.11392168327294143,-0.30206716419272045,0.06242382029838356,-0.28818009307995585,1,1,1,1,231.9972855569847,32.425463158540744,5.399639069340459,393.13482843746414,662.9572162223301,-0.20262928307056427,0.7269631028175354,-1.4760011434555054,0.4176502525806427,1.1378062963485718,-2.1689770221710205,-0.33237048983573914,-0.3478061854839325,1.1068390607833862,0.39749279618263245,-0.29349368810653687,0.6966190338134766,0.1361321562960647,0.6720696901198369,-0.8087017883315367,-0.4941560816536301,-4.794824468767002,-1.8234130019973982,-0.022761494801716225,-7.601319818191504,8.128910139631614,0.9355480178939564,-0.0783403538964763,1.2762548381318224,-36.571118245465655,-15.4981706225491,1.4388744783794358,-38.10230910579333,-46.17713284053042,37.41211682083735,-28.593977128983806,-37.55192319068658,30.94655398115139,-83.44107031305131,252.34579656591424,-87.7006409480254
1727776115.6438549,161665,212.51835126805196,12.784430432344564,10.591122451687804,0.024655904697429912,-0.2915905088212254,1.9531143066202867,0.1826810877007311,-0.06754632938599374,-0.11497626187553452,-0.14095167320791716,0.14643887069509076,-0.2659712506440957,1,1,1,1,238.19564391636519,36.03105600847873,5.816149382673103,176.1720675813936,456.21491688891064,-0.2034442126750946,0.7288087010383606,-1.4786616563796997,0.4159245193004608,1.126493215560913,-2.1728358268737793,-0.3339524269104004,-0.36666935682296753,1.1255344152450562,0.39873912930488586,-0.2918158769607544,0.6976256966590881,-0.08389830659303901,0.7229747826446974,-0.9496098080551973,-0.5989884884874003,-4.754275843799729,-1.5648057123703314,-0.32068417647724157,-7.715709244913133,7.9592366844732485,0.6736787221161923,0.28443998549034905,0.8780815622334132,-41.96829222852904,8.169147574225512,-10.15594990331507,-35.51887453663558,-19.824279272094376,61.2788381389672,-35.8922294814404,-36.19191180311371,19.829285482311505,-81.54650177462669,193.69313353580728,-114.82032831653217
1727776115.646514,161666,212.51831915606363,12.784960655906715,10.590978150528684,0.02449484943815175,-0.29121983130136486,1.9524390736677186,0.17821376583141035,-0.049290032299871014,-0.11442431326434552,-0.10456372964212739,0.20159005895112192,-0.2247017433906858,1,1,1,1,249.3259283520766,38.70046233564372,-3.079279009345482,206.0751335903322,491.022245268707,-0.20361198484897614,0.731109619140625,-1.4813700914382935,0.41381528973579407,1.1131666898727417,-2.175448417663574,-0.3351268768310547,-0.38838475942611694,1.1462911367416382,0.3997218608856201,-0.2906414270401001,0.6976017355918884,-0.058880207208779366,0.7692584085061592,-0.9468696150305875,-0.6865512776926584,-4.758666464330887,-1.332724106411699,-0.3614465700562648,-7.733211805913242,7.669408591465451,0.5035731857157184,0.3397103818712561,0.3718747931604722,-23.160086676603722,12.484178006268275,-8.338236998156823,-29.972626383129487,-10.5627456292958,71.99711344118806,-25.9844856590885,-31.060273090226644,5.522245348917316,-67.93393069658305,-32.01515056433899,-195.25902112408093
1727776115.6488583,161667,212.51825194791903,12.785498143065618,10.59082381292665,0.024381654488287757,-0.2906865613665318,1.9518333881864,0.18202397394803826,-0.052098167719133386,-0.08539557094932619,-0.2825975562440398,0.14069258004762447,-0.20973062421912217,1,1,1,1,250.9534130296043,27.233445679461042,-6.612511517127088,435.19945516551064,706.7738023574489,-0.20306071639060974,0.7325237989425659,-1.4830478429794312,0.4111068546772003,1.1014461517333984,-2.1774139404296875,-0.33555829524993896,-0.4068644344806671,1.1644831895828247,0.4003450274467468,-0.28977856040000916,0.6965711116790771,0.07860494935374868,0.6814001582227136,-0.8277631973862107,-0.9018490765398798,-4.822266745903614,-1.0115873257071986,-0.2740797478953444,-7.716240545550603,7.642485630741404,0.3866016079354196,0.3542801034314025,-0.008583239196460084,-10.11819879591487,-1.6471022836122828,1.6204529626902415,-56.914208994782804,-10.257188640573887,71.01643313190617,-13.912553804287914,-20.887588415253735,0.9325693387937299,-54.73309284518114,-21.832004459972033,-122.73338099401347
